# 
# Header Description:
# 
# Version: v2.0.0.1 Platform: 9 Manufacturer: samsung Model: SM-G973F
# 
# Raw,ElapsedRealtimeNanos,TimeNanos,LeapSecond,TimeUncertaintyNanos,FullBiasNanos,BiasNanos,BiasUncertaintyNanos,DriftNanosPerSecond,DriftUncertaintyNanosPerSecond,HardwareClockDiscontinuityCount,Svid,TimeOffsetNanos,State,ReceivedSvTimeNanos,ReceivedSvTimeUncertaintyNanos,Cn0DbHz,PseudorangeRateMetersPerSecond,PseudorangeRateUncertaintyMetersPerSecond,AccumulatedDeltaRangeState,AccumulatedDeltaRangeMeters,AccumulatedDeltaRangeUncertaintyMeters,CarrierFrequencyHz,CarrierCycles,CarrierPhase,CarrierPhaseUncertainty,MultipathIndicator,SnrInDb,ConstellationType,AgcDb,CarrierFrequencyHz,UserLatitude,UserLongitude,UserAltitude
# 
# Fix,Provider,Latitude,Longitude,Altitude,Speed,Accuracy,(UTC)TimeInMs,ElapsedRealtimeNanos
# 
# Nav,Svid,Type,Status,MessageId,Sub-messageId,Data(Bytes)
# 
Fix,gps,51.524707,-0.134140,114.858938,0.000000,8.000000,1581410967999,1186216172044432
Raw,1186216206524009,34554000000,,,-1265446151445559028,0.0,23.770348192216854,,,25,2,0.0,16431,204585918911406,76,22.340620040893555,562.4966579577235,1.1722646276215096,20,19355.401163611125,3.4028234663852886E38,1.57542003E9,,,,1,,1,34.44438552856445,1.57542003E9,1.0,NaN,NaN
Raw,1186216206524009,34554000000,,,-1265446151445559028,0.0,23.770348192216854,,,25,5,0.0,16431,204585931441233,55,26.320180892944336,-51.0776479060674,0.9919645717125647,20,-1967.334222785413,3.4028234663852886E38,1.57542003E9,,,,1,,1,34.44438552856445,1.57542003E9,1.0,NaN,NaN
Raw,1186216206524009,34554000000,,,-1265446151445559028,0.0,23.770348192216854,,,25,7,0.0,16431,204585927633997,12,47.322662353515625,302.0715061497849,0.0014660246670246124,25,11599.931483952269,7.330123335123062E-4,1.57542003E9,,,,0,,1,34.44438552856445,1.57542003E9,1.0,NaN,NaN
Raw,1186216206524009,34554000000,,,-1265446151445559028,0.0,23.770348192216854,,,25,9,0.0,16431,204585917989675,26,35.282737731933594,613.7656828543331,0.005244240164756774,25,23617.617773115322,0.0026221200823783875,1.57542003E9,,,,0,,1,34.44438552856445,1.57542003E9,1.0,NaN,NaN
Raw,1186216206524009,34554000000,,,-1265446151445559028,0.0,23.770348192216854,,,25,13,0.0,16431,204585926549553,74,22.71279525756836,-508.0835048822089,1.1533046635655468,20,-15729.367935731045,3.4028234663852886E38,1.57542003E9,,,,0,,1,34.44438552856445,1.57542003E9,1.0,NaN,NaN
Raw,1186216206524009,34554000000,,,-1265446151445559028,0.0,23.770348192216854,,,25,15,0.0,16385,204585918005081,72,23.02297019958496,-681.9669152808265,1.1414170755072588,20,-6461.778539611238,3.4028234663852886E38,1.57542003E9,,,,0,,1,34.44438552856445,1.57542003E9,1.0,NaN,NaN
Raw,1186216206524009,34554000000,,,-1265446151445559028,0.0,23.770348192216854,,,25,21,0.0,16384,204585913979357,1000000000,18.716197967529297,-396.3311175913268,2.99792458E8,20,-1981.961146070462,3.4028234663852886E38,1.57542003E9,,,,1,,1,34.44438552856445,1.57542003E9,1.0,NaN,NaN
Raw,1186216206524009,34554000000,,,-1265446151445559028,0.0,23.770348192216854,,,25,27,0.0,16384,204585914465809,1000000000,12.0,-294.07318246137356,2.99792458E8,20,-10264.168620193017,3.4028234663852886E38,1.57542003E9,,,,1,,1,34.44438552856445,1.57542003E9,1.0,NaN,NaN
Raw,1186216206524009,34554000000,,,-1265446151445559028,0.0,23.770348192216854,,,25,28,0.0,16431,204585919372451,34,32.13184356689453,-637.877902501641,0.007537501398473978,25,-24418.309267179444,0.003768750699236989,1.57542003E9,,,,0,,1,34.44438552856445,1.57542003E9,1.0,NaN,NaN
Raw,1186216206524009,34554000000,,,-1265446151445559028,0.0,23.770348192216854,,,25,30,0.0,16431,204585931110078,12,47.41357421875,-102.43022313362734,0.001450760755687952,25,-3990.1221334016577,7.25380377843976E-4,1.57542003E9,,,,0,,1,34.44438552856445,1.57542003E9,1.0,NaN,NaN
Raw,1186216206524009,34554000000,,,-1265446151445559028,0.0,23.770348192216854,,,25,2,0.0,32867,1935282694,91,28.73111343383789,-212.3424122047503,1.168633115252085,28,-6017.742010862855,3.4028234663852886E38,1.59975002E9,,,,0,,3,52.77764129638672,1.59975002E9,1.0,NaN,NaN
Raw,1186216206524009,34554000000,,,-1265446151445559028,0.0,23.770348192216854,,,25,18,0.0,32768,42567924125832,1000000000,24.536380767822266,374.04156593243056,2.99792458E8,28,1869.6740746683843,3.4028234663852886E38,1.60031245E9,,,,1,,3,52.77764129638672,1.60031245E9,1.0,NaN,NaN
Raw,1186216206524009,34554000000,,,-1265446151445559028,0.0,23.770348192216854,,,25,13,0.0,32768,42567919025289,1000000000,18.859750747680664,-886.5073249094294,2.99792458E8,28,-4431.053193285947,3.4028234663852886E38,1.60087501E9,,,,1,,3,52.77764129638672,1.60087501E9,1.0,NaN,NaN
Raw,1186216206524009,34554000000,,,-1265446151445559028,0.0,23.770348192216854,,,25,12,0.0,32867,1932263332,74,31.219051361083984,-537.0441180036844,0.7718157336678564,28,-15033.440023655776,3.4028234663852886E38,1.60143744E9,,,,0,,3,52.77764129638672,1.60143744E9,1.0,NaN,NaN
Raw,1186216206524009,34554000000,,,-1265446151445559028,0.0,23.770348192216854,,,25,11,0.0,32867,1932695487,65,32.814361572265625,228.85933299623684,0.7001543067329443,28,6248.344669240863,3.4028234663852886E38,1.602E9,,,,0,,3,52.77764129638672,1.602E9,1.0,NaN,NaN
Raw,1186216206524009,34554000000,,,-1265446151445559028,0.0,23.770348192216854,,,25,1,0.0,32867,1928299417,46,37.10251235961914,561.7048414173205,0.004434568807482719,25,15416.701576979694,0.0022172844037413597,1.60256256E9,,,,0,,3,52.77764129638672,1.60256256E9,1.0,NaN,NaN
Raw,1186216206524009,34554000000,,,-1265446151445559028,0.0,23.770348192216854,,,25,19,0.0,32768,42567922859150,1000000000,18.013065338134766,-258.5103033158101,2.99792458E8,28,-1289.1680278146898,3.4028234663852886E38,1.60368755E9,,,,1,,3,52.77764129638672,1.60368755E9,1.0,NaN,NaN
Raw,1186216206524009,34554000000,,,-1265446151445559028,0.0,23.770348192216854,,,25,17,0.0,32768,42567919092661,1000000000,18.305152893066406,740.068233224044,2.99792458E8,28,3702.0449212369463,3.4028234663852886E38,1.60424998E9,,,,1,,3,52.77764129638672,1.60424998E9,1.0,NaN,NaN
Raw,1186216206524009,34554000000,,,-1265446151445559028,0.0,23.770348192216854,,,25,3,0.0,32803,4437940,154,22.199016571044922,-692.8737785225171,1.176028875182939,28,-18886.513484699994,3.4028234663852886E38,1.60481254E9,,,,0,,3,52.77764129638672,1.60481254E9,1.0,NaN,NaN
Raw,1186216206524009,34554000000,,,-1265446151445559028,0.0,23.770348192216854,,,25,5,0.0,17193,204571863513934,23,36.897193908691406,-13.169518714559317,0.5145424134374321,20,-367.0904249424697,3.4028234663852886E38,1.56109798E9,,,,0,,5,49.67959976196289,1.56109798E9,1.0,NaN,NaN
Raw,1186216206524009,34554000000,,,-1265446151445559028,0.0,23.770348192216854,,,25,7,0.0,16384,204571866495458,1000000000,13.642053604125977,63.06290989428922,2.99792458E8,20,315.6905507572085,3.4028234663852886E38,1.56109798E9,,,,1,,5,49.67959976196289,1.56109798E9,1.0,NaN,NaN
Raw,1186216206524009,34554000000,,,-1265446151445559028,0.0,23.770348192216854,,,25,10,0.0,81967,204571869566983,29,25.61397933959961,-59.982584337135336,1.0233844694541263,20,-1695.9288635624296,3.4028234663852886E38,1.56109798E9,,,,1,,5,49.67959976196289,1.56109798E9,1.0,NaN,NaN
Raw,1186216206524009,34554000000,,,-1265446151445559028,0.0,23.770348192216854,,,25,11,0.0,16384,204571912002589,1000000000,12.0,278.7861782371974,2.99792458E8,20,1394.6055255969686,3.4028234663852886E38,1.56109798E9,,,,0,,5,49.67959976196289,1.56109798E9,1.0,NaN,NaN
Raw,1186216206524009,34554000000,,,-1265446151445559028,0.0,23.770348192216854,,,25,19,0.0,81967,204571916786549,6,44.76152801513672,563.3364101052794,0.0018848874606192112,25,15865.970440542202,9.424437303096056E-4,1.56109798E9,,,,0,,5,49.67959976196289,1.56109798E9,1.0,NaN,NaN
Raw,1186216206524009,34554000000,,,-1265446151445559028,0.0,23.770348192216854,,,25,21,0.0,16385,204571922996998,70,14.801933288574219,-423.08925420738524,1.499501342868463,20,-11692.424468344072,3.4028234663852886E38,1.56109798E9,,,,1,,5,49.67959976196289,1.56109798E9,1.0,NaN,NaN
Raw,1186216206524009,34554000000,,,-1265446151445559028,0.0,23.770348192216854,,,25,22,0.0,81967,204571926289889,6,47.06067657470703,149.5334886194214,0.0015247788978740575,25,4189.97612576589,7.623894489370286E-4,1.56109798E9,,,,0,,5,49.67959976196289,1.56109798E9,1.0,NaN,NaN
Raw,1186216206524009,34554000000,,,-1265446151445559028,0.0,23.770348192216854,,,25,36,0.0,81967,204571925132709,7,42.964088439941406,-97.27719202081289,0.002318234881386161,25,-2781.05111488747,0.0011591174406930804,1.56109798E9,,,,0,,5,49.67959976196289,1.56109798E9,1.0,NaN,NaN
Raw,1186216206524009,34554000000,,,-1265446151445559028,0.0,23.770348192216854,,,25,2,0.0,85026,204585908349393,69,23.47185516357422,441.50887925794245,1.1187748748008746,28,2209.014085706051,3.4028234663852886E38,1.57542003E9,,,,1,,6,34.44438552856445,1.57542003E9,1.0,NaN,NaN
Raw,1186216206524009,34554000000,,,-1265446151445559028,0.0,23.770348192216854,,,25,7,0.0,21546,204585918006754,11,45.905181884765625,297.26244944581686,0.0016373317921534183,25,7609.430825113271,8.18665896076709E-4,1.57542003E9,,,,0,,6,34.44438552856445,1.57542003E9,1.0,NaN,NaN
Raw,1186216206524009,34554000000,,,-1265446151445559028,0.0,23.770348192216854,,,25,8,0.0,84002,204585910174438,1000000000,24.19774627685547,491.9628437714848,2.99792458E8,28,2460.6754127644463,3.4028234663852886E38,1.57542003E9,,,,0,,6,34.44438552856445,1.57542003E9,1.0,NaN,NaN
Raw,1186216206524009,34554000000,,,-1265446151445559028,0.0,23.770348192216854,,,25,12,0.0,84002,204585916474515,1000000000,22.291088104248047,47.024306557950865,2.99792458E8,28,235.49874948769303,3.4028234663852886E38,1.57542003E9,,,,1,,6,34.44438552856445,1.57542003E9,1.0,NaN,NaN
Raw,1186216206524009,34554000000,,,-1265446151445559028,0.0,23.770348192216854,,,25,19,0.0,84002,204585911368650,1000000000,26.39655303955078,-480.5290657519515,2.99792458E8,28,-2398.0375656048086,3.4028234663852886E38,1.57542003E9,,,,0,,6,34.44438552856445,1.57542003E9,1.0,NaN,NaN
Raw,1186216206524009,34554000000,,,-1265446151445559028,0.0,23.770348192216854,,,25,27,0.0,21546,204585914971863,30,33.56456756591797,-527.719163021733,0.006391327362507582,25,-12893.030010385331,0.003195663681253791,1.57542003E9,,,,0,,6,34.44438552856445,1.57542003E9,1.0,NaN,NaN
Raw,1186216206524009,34554000000,,,-1265446151445559028,0.0,23.770348192216854,,,25,30,0.0,85026,204585921373778,11,45.960205078125,-26.302323405768675,0.0016269917832687497,25,-694.2582078989235,8.134958916343749E-4,1.57542003E9,,,,0,,6,34.44438552856445,1.57542003E9,1.0,NaN,NaN
Raw,1186216206524009,34554000000,,,-1265446151445559028,0.0,23.770348192216854,,,25,33,0.0,84002,204585909308975,1000000000,23.98965072631836,468.94184851315254,2.99792458E8,28,2347.163298810648,3.4028234663852886E38,1.57542003E9,,,,1,,6,34.44438552856445,1.57542003E9,1.0,NaN,NaN
Fix,gps,51.524707,-0.134140,114.173455,0.000000,8.000000,1581410968999,1186217177692970
Raw,1186217201743816,35554000000,,,-1265446151445559080,0.0,23.544037301441296,,,25,2,0.0,16431,204586918909528,90,20.21951675415039,562.3690873229586,1.267647843700085,20,19916.84690463354,3.4028234663852886E38,1.57542003E9,,,,0,,1,35.384315490722656,1.57542003E9,1.0,NaN,NaN
Raw,1186217201743816,35554000000,,,-1265446151445559080,0.0,23.544037301441296,,,25,5,0.0,16431,204586931441410,35,31.84392738342285,-51.35228817476059,0.00779153686016798,17,-2018.6865109601736,0.09904260482926643,1.57542003E9,,,,0,,1,35.384315490722656,1.57542003E9,1.0,NaN,NaN
Raw,1186217201743816,35554000000,,,-1265446151445559080,0.0,23.544037301441296,,,25,7,0.0,16431,204586927632984,14,45.48825454711914,302.2503141857196,0.0018107639625668526,25,11902.181798137988,9.053819812834263E-4,1.57542003E9,,,,0,,1,35.384315490722656,1.57542003E9,1.0,NaN,NaN
Raw,1186217201743816,35554000000,,,-1265446151445559080,0.0,23.544037301441296,,,25,9,0.0,16431,204586917987624,26,35.70707321166992,613.8550231374247,0.004994198214262724,25,24231.472796252747,0.002497099107131362,1.57542003E9,,,,0,,1,35.384315490722656,1.57542003E9,1.0,NaN,NaN
Raw,1186217201743816,35554000000,,,-1265446151445559080,0.0,23.544037301441296,,,25,13,0.0,16431,204586926551240,58,25.641616821289062,-507.96673838616175,1.0215992010918504,20,-16236.026724434703,3.4028234663852886E38,1.57542003E9,,,,0,,1,35.384315490722656,1.57542003E9,1.0,NaN,NaN
Raw,1186217201743816,35554000000,,,-1265446151445559080,0.0,23.544037301441296,,,25,15,0.0,16385,204586918007332,86,20.765789031982422,-681.541907047987,1.2429203558198072,20,-7143.95445470409,3.4028234663852886E38,1.57542003E9,,,,1,,1,35.384315490722656,1.57542003E9,1.0,NaN,NaN
Raw,1186217201743816,35554000000,,,-1265446151445559080,0.0,23.544037301441296,,,25,21,0.0,16384,204586913980682,1000000000,18.20539665222168,-396.14560678047314,2.99792458E8,20,-2378.1161648460893,3.4028234663852886E38,1.57542003E9,,,,1,,1,35.384315490722656,1.57542003E9,1.0,NaN,NaN
Raw,1186217201743816,35554000000,,,-1265446151445559080,0.0,23.544037301441296,,,25,27,0.0,16384,204586914466694,1000000000,12.0,-294.07318246137356,2.99792458E8,20,-10558.139184817133,3.4028234663852886E38,1.57542003E9,,,,1,,1,35.384315490722656,1.57542003E9,1.0,NaN,NaN
Raw,1186217201743816,35554000000,,,-1265446151445559080,0.0,23.544037301441296,,,25,28,0.0,16431,204586919374590,35,32.0424690246582,-637.8629703923434,0.007615457288920879,25,-25056.172237571787,0.0038077286444604397,1.57542003E9,,,,0,,1,35.384315490722656,1.57542003E9,1.0,NaN,NaN
Raw,1186217201743816,35554000000,,,-1265446151445559080,0.0,23.544037301441296,,,25,30,0.0,16431,204586931110426,11,47.91383743286133,-102.27233623915708,0.0013695647940039635,25,-4092.394469640815,6.847823970019817E-4,1.57542003E9,,,,0,,1,35.384315490722656,1.57542003E9,1.0,NaN,NaN
Raw,1186217201743816,35554000000,,,-1265446151445559080,0.0,23.544037301441296,,,25,2,0.0,32867,935283396,88,29.153404235839844,-212.11027007484427,0.01045908033847809,25,-6229.852280937699,0.005229540169239044,1.59975002E9,,,,0,,3,50.755516052246094,1.59975002E9,1.0,NaN,NaN
Raw,1186217201743816,35554000000,,,-1265446151445559080,0.0,23.544037301441296,,,25,18,0.0,32768,42568924124179,1000000000,23.91372299194336,373.9897605985159,2.99792458E8,28,2243.3699645286865,3.4028234663852886E38,1.60031245E9,,,,1,,3,50.755516052246094,1.60031245E9,1.0,NaN,NaN
Raw,1186217201743816,35554000000,,,-1265446151445559080,0.0,23.544037301441296,,,25,13,0.0,32768,42568919028255,1000000000,18.483291625976562,-886.1667048389404,2.99792458E8,28,-5317.554086799524,3.4028234663852886E38,1.60087501E9,,,,1,,3,50.755516052246094,1.60087501E9,1.0,NaN,NaN
Raw,1186217201743816,35554000000,,,-1265446151445559080,0.0,23.544037301441296,,,25,12,0.0,32867,932265087,89,29.0379638671875,-536.6442626237588,0.8698970554647572,28,-15570.382801035823,3.4028234663852886E38,1.60143744E9,,,,0,,3,50.755516052246094,1.60143744E9,1.0,NaN,NaN
Raw,1186217201743816,35554000000,,,-1265446151445559080,0.0,23.544037301441296,,,25,11,0.0,32867,932694764,37,39.956668853759766,229.484508353612,0.0031937144231051207,25,6477.829177594475,0.0015968572115525603,1.602E9,,,,0,,3,50.755516052246094,1.602E9,1.0,NaN,NaN
Raw,1186217201743816,35554000000,,,-1265446151445559080,0.0,23.544037301441296,,,25,1,0.0,32867,928297502,36,39.96563720703125,561.7670426742461,0.0031892985571175814,25,15978.46861965394,0.0015946492785587907,1.60256256E9,,,,0,,3,50.755516052246094,1.60256256E9,1.0,NaN,NaN
Raw,1186217201743816,35554000000,,,-1265446151445559080,0.0,23.544037301441296,,,25,19,0.0,32768,42568922860138,1000000000,17.245174407958984,-257.52966583550756,2.99792458E8,28,-1547.296713374788,3.4028234663852886E38,1.60368755E9,,,,1,,3,50.755516052246094,1.60368755E9,1.0,NaN,NaN
Raw,1186217201743816,35554000000,,,-1265446151445559080,0.0,23.544037301441296,,,25,17,0.0,32768,42568919090200,1000000000,17.444957733154297,740.3496861500093,2.99792458E8,28,4441.986214537903,3.4028234663852886E38,1.60424998E9,,,,1,,3,50.755516052246094,1.60424998E9,1.0,NaN,NaN
Raw,1186217201743816,35554000000,,,-1265446151445559080,0.0,23.544037301441296,,,25,3,0.0,32803,4440261,135,23.892318725585938,-693.277042148095,1.0998834084944469,28,-19579.595460102613,3.4028234663852886E38,1.60481254E9,,,,0,,3,50.755516052246094,1.60481254E9,1.0,NaN,NaN
Raw,1186217201743816,35554000000,,,-1265446151445559080,0.0,23.544037301441296,,,25,5,0.0,17193,204572863513956,25,35.8506965637207,-13.311312384461871,0.5616023311033347,20,-380.424056657375,3.4028234663852886E38,1.56109798E9,,,,0,,5,51.1672477722168,1.56109798E9,1.0,NaN,NaN
Raw,1186217201743816,35554000000,,,-1265446151445559080,0.0,23.544037301441296,,,25,7,0.0,16385,204572866495163,60,16.5727481842041,63.14876360227018,1.429405845049259,20,378.318857548119,3.4028234663852886E38,1.56109798E9,,,,1,,5,51.1672477722168,1.56109798E9,1.0,NaN,NaN
Raw,1186217201743816,35554000000,,,-1265446151445559080,0.0,23.544037301441296,,,25,10,0.0,81967,204572869567175,20,30.292007446289062,-59.83726747044261,0.00940124224871397,17,-1755.7661310328722,0.10072036427949523,1.56109798E9,,,,0,,5,51.1672477722168,1.56109798E9,1.0,NaN,NaN
Raw,1186217201743816,35554000000,,,-1265446151445559080,0.0,23.544037301441296,,,25,11,0.0,16384,204572912001663,1000000000,12.0,278.7861782371974,2.99792458E8,20,1673.3916966155732,3.4028234663852886E38,1.56109798E9,,,,1,,5,51.1672477722168,1.56109798E9,1.0,NaN,NaN
Raw,1186217201743816,35554000000,,,-1265446151445559080,0.0,23.544037301441296,,,25,19,0.0,81967,204572916784669,6,44.69233322143555,563.3824542632283,0.001899963477626443,25,16429.35289480543,9.499817388132215E-4,1.56109798E9,,,,0,,5,51.1672477722168,1.56109798E9,1.0,NaN,NaN
Raw,1186217201743816,35554000000,,,-1265446151445559080,0.0,23.544037301441296,,,25,21,0.0,16385,204572922998381,43,20.702484130859375,-422.8114140218113,1.2430673364135618,20,-12115.313744716728,3.4028234663852886E38,1.56109798E9,,,,1,,5,51.1672477722168,1.56109798E9,1.0,NaN,NaN
Raw,1186217201743816,35554000000,,,-1265446151445559080,0.0,23.544037301441296,,,25,22,0.0,81967,204572926289392,6,47.25316619873047,149.65662316894668,0.001491359551437199,25,4339.632748934837,7.456797757185996E-4,1.56109798E9,,,,0,,5,51.1672477722168,1.56109798E9,1.0,NaN,NaN
Raw,1186217201743816,35554000000,,,-1265446151445559080,0.0,23.544037301441296,,,25,36,0.0,81967,204572925133035,7,42.46049499511719,-97.13796247241044,0.0024566154461354017,25,-2878.1890773598802,0.0012283077230677009,1.56109798E9,,,,0,,5,51.1672477722168,1.56109798E9,1.0,NaN,NaN
Raw,1186217201743816,35554000000,,,-1265446151445559080,0.0,23.544037301441296,,,25,2,0.0,85026,204586908347913,72,23.0674991607666,441.71477137779675,1.1369579984903897,28,2650.7635143596067,3.4028234663852886E38,1.57542003E9,,,,1,,6,35.384315490722656,1.57542003E9,1.0,NaN,NaN
Raw,1186217201743816,35554000000,,,-1265446151445559080,0.0,23.544037301441296,,,25,7,0.0,21546,204586918005766,12,45.0235595703125,297.36877760697735,0.0018122484907507896,25,7906.799602720248,9.061242453753948E-4,1.57542003E9,,,,0,,6,35.384315490722656,1.57542003E9,1.0,NaN,NaN
Raw,1186217201743816,35554000000,,,-1265446151445559080,0.0,23.544037301441296,,,25,8,0.0,84002,204586910172796,1000000000,23.337539672851562,491.95824263985423,2.99792458E8,28,2952.7233913183586,3.4028234663852886E38,1.57542003E9,,,,1,,6,35.384315490722656,1.57542003E9,1.0,NaN,NaN
Raw,1186217201743816,35554000000,,,-1265446151445559080,0.0,23.544037301441296,,,25,12,0.0,85026,204586916474448,80,21.689775466918945,47.024306557950865,1.1989354811965667,28,282.5962398242339,3.4028234663852886E38,1.57542003E9,,,,1,,6,35.384315490722656,1.57542003E9,1.0,NaN,NaN
Raw,1186217201743816,35554000000,,,-1265446151445559080,0.0,23.544037301441296,,,25,19,0.0,84002,204586911370258,1000000000,25.60824203491211,-480.49849378845056,2.99792458E8,28,-2882.008636156185,3.4028234663852886E38,1.57542003E9,,,,1,,6,35.384315490722656,1.57542003E9,1.0,NaN,NaN
Raw,1186217201743816,35554000000,,,-1265446151445559080,0.0,23.544037301441296,,,25,27,0.0,21546,204586914973646,33,32.60237503051758,-527.6240246422221,0.00714004086330533,25,-13420.654035027554,0.003570020431652665,1.57542003E9,,,,0,,6,35.384315490722656,1.57542003E9,1.0,NaN,NaN
Raw,1186217201743816,35554000000,,,-1265446151445559080,0.0,23.544037301441296,,,25,30,0.0,85026,204586921373862,12,44.32563400268555,-25.969058186575467,0.001963876187801361,25,-720.227266085499,9.819380939006805E-4,1.57542003E9,,,,0,,6,35.384315490722656,1.57542003E9,1.0,NaN,NaN
Raw,1186217201743816,35554000000,,,-1265446151445559080,0.0,23.544037301441296,,,25,33,0.0,84002,204586909307417,1000000000,23.129444122314453,468.76526730590786,2.99792458E8,28,2813.6842310233174,3.4028234663852886E38,1.57542003E9,,,,0,,6,35.384315490722656,1.57542003E9,1.0,NaN,NaN
Fix,gps,51.524707,-0.134140,114.129925,0.000000,16.000000,1581410969999,1186218152066662
Raw,1186218180492085,36554000000,,,-1265446151445559130,0.0,23.5668522589719,,,25,2,0.0,16431,204587918907652,126,16.076995849609375,562.4754586697663,1.453932033420699,20,20479.07105140386,3.4028234663852886E38,1.57542003E9,,,,1,,1,37.307655334472656,1.57542003E9,1.0,NaN,NaN
Raw,1186218180492085,36554000000,,,-1265446151445559130,0.0,23.5668522589719,,,25,5,0.0,16431,204587931441611,44,29.16028594970703,-51.090646102923785,0.8642482876998887,20,-2069.4810457747467,3.4028234663852886E38,1.57542003E9,,,,0,,1,37.307655334472656,1.57542003E9,1.0,NaN,NaN
Raw,1186218180492085,36554000000,,,-1265446151445559130,0.0,23.5668522589719,,,25,7,0.0,16431,204587927631971,12,44.92091369628906,302.08470693899494,0.15482540003525658,20,12204.408461829058,3.4028234663852886E38,1.57542003E9,,,,0,,1,37.307655334472656,1.57542003E9,1.0,NaN,NaN
Raw,1186218180492085,36554000000,,,-1265446151445559130,0.0,23.5668522589719,,,25,9,0.0,16431,204587917985568,31,33.33659362792969,613.926403201514,0.6776215426643013,20,24845.381976819197,3.4028234663852886E38,1.57542003E9,,,,0,,1,37.307655334472656,1.57542003E9,1.0,NaN,NaN
Raw,1186218180492085,36554000000,,,-1265446151445559130,0.0,23.5668522589719,,,25,13,0.0,16431,204587926552932,61,25.062183380126953,-507.9973103496627,1.0476560379111137,20,-16743.960073104427,3.4028234663852886E38,1.57542003E9,,,,0,,1,37.307655334472656,1.57542003E9,1.0,NaN,NaN
Raw,1186218180492085,36554000000,,,-1265446151445559130,0.0,23.5668522589719,,,25,15,0.0,16385,204587918009590,97,19.382896423339844,-681.6250000769896,1.3051077917835485,20,-7825.990404578379,3.4028234663852886E38,1.57542003E9,,,,1,,1,37.307655334472656,1.57542003E9,1.0,NaN,NaN
Raw,1186218180492085,36554000000,,,-1265446151445559130,0.0,23.5668522589719,,,25,21,0.0,16384,204587913982007,1000000000,17.345182418823242,-396.14560678047314,2.99792458E8,20,-2774.3108618578854,3.4028234663852886E38,1.57542003E9,,,,0,,1,37.307655334472656,1.57542003E9,1.0,NaN,NaN
Raw,1186218180492085,36554000000,,,-1265446151445559130,0.0,23.5668522589719,,,25,27,0.0,16384,204587914467771,1000000000,12.0,-293.8875353206938,2.99792458E8,20,-10851.803716009366,3.4028234663852886E38,1.57542003E9,,,,1,,1,37.307655334472656,1.57542003E9,1.0,NaN,NaN
Raw,1186218180492085,36554000000,,,-1265446151445559130,0.0,23.5668522589719,,,25,28,0.0,16431,204587919376721,46,28.588729858398438,-638.4207148904143,0.8913778565247479,20,-25694.089921979015,3.4028234663852886E38,1.57542003E9,,,,0,,1,37.307655334472656,1.57542003E9,1.0,NaN,NaN
Raw,1186218180492085,36554000000,,,-1265446151445559130,0.0,23.5668522589719,,,25,30,0.0,16431,204587931110755,12,46.89839172363281,-102.49217533302038,0.15189477474538016,20,-4194.699932843778,3.4028234663852886E38,1.57542003E9,,,,0,,1,37.307655334472656,1.57542003E9,1.0,NaN,NaN
Raw,1186218180492085,36554000000,,,-1265446151445559130,0.0,23.5668522589719,,,25,2,0.0,32867,1935283951,115,25.84021759033203,-211.74687240069898,1.0142391212326687,28,-6442.435367454805,3.4028234663852886E38,1.59975002E9,,,,0,,3,50.585201263427734,1.59975002E9,1.0,NaN,NaN
Raw,1186218180492085,36554000000,,,-1265446151445559130,0.0,23.5668522589719,,,25,18,0.0,32768,42569924123339,1000000000,23.389867782592773,374.0442925289524,2.99792458E8,28,2617.9364835225115,3.4028234663852886E38,1.60031245E9,,,,1,,3,50.585201263427734,1.60031245E9,1.0,NaN,NaN
Raw,1186218180492085,36554000000,,,-1265446151445559130,0.0,23.5668522589719,,,25,13,0.0,32768,42569919031214,1000000000,18.041723251342773,-885.5551292390951,2.99792458E8,28,-6204.859488582878,3.4028234663852886E38,1.60087501E9,,,,1,,3,50.585201263427734,1.60087501E9,1.0,NaN,NaN
Raw,1186218180492085,36554000000,,,-1265446151445559130,0.0,23.5668522589719,,,25,12,0.0,32867,1932266875,69,32.05109405517578,-536.477974318384,0.7344004522412813,28,-16107.424623567173,3.4028234663852886E38,1.60143744E9,,,,0,,3,50.585201263427734,1.60143744E9,1.0,NaN,NaN
Raw,1186218180492085,36554000000,,,-1265446151445559130,0.0,23.5668522589719,,,25,11,0.0,32867,1932693949,36,40.238040924072266,229.51191454188302,0.0029150850605219603,25,6707.341092136358,0.0014575425302609801,1.602E9,,,,0,,3,50.585201263427734,1.602E9,1.0,NaN,NaN
Raw,1186218180492085,36554000000,,,-1265446151445559130,0.0,23.5668522589719,,,25,1,0.0,32867,1928295634,33,41.40204620361328,561.4657999777346,0.3131842588101368,28,16540.296424021348,3.4028234663852886E38,1.60256256E9,,,,0,,3,50.585201263427734,1.60256256E9,1.0,NaN,NaN
Raw,1186218180492085,36554000000,,,-1265446151445559130,0.0,23.5668522589719,,,25,19,0.0,32768,42569922861001,1000000000,16.611024856567383,-257.0049152936541,2.99792458E8,28,-1804.9981443885483,3.4028234663852886E38,1.60368755E9,,,,1,,3,50.585201263427734,1.60368755E9,1.0,NaN,NaN
Raw,1186218180492085,36554000000,,,-1265446151445559130,0.0,23.5668522589719,,,25,17,0.0,32768,42569919087731,1000000000,16.695816040039062,739.8421302074717,2.99792458E8,28,5181.762788590384,3.4028234663852886E38,1.60424998E9,,,,1,,3,50.585201263427734,1.60424998E9,1.0,NaN,NaN
Raw,1186218180492085,36554000000,,,-1265446151445559130,0.0,23.5668522589719,,,25,3,0.0,32803,4442525,107,26.75155258178711,-693.2222375580063,0.9713074078294426,28,-20271.961644463765,3.4028234663852886E38,1.60481254E9,,,,1,,3,50.585201263427734,1.60481254E9,1.0,NaN,NaN
Raw,1186218180492085,36554000000,,,-1265446151445559130,0.0,23.5668522589719,,,25,5,0.0,17193,204573863514011,31,33.22001266479492,-13.384997590387421,0.6799012729153495,20,-393.93700005119274,3.4028234663852886E38,1.56109798E9,,,,0,,5,52.296875,1.56109798E9,1.0,NaN,NaN
Raw,1186218180492085,36554000000,,,-1265446151445559130,0.0,23.5668522589719,,,25,7,0.0,16385,204573866494906,48,19.458415985107422,62.8134689156129,1.2996404864727449,20,442.1123393698,3.4028234663852886E38,1.56109798E9,,,,0,,5,52.296875,1.56109798E9,1.0,NaN,NaN
Raw,1186218180492085,36554000000,,,-1265446151445559130,0.0,23.5668522589719,,,25,10,0.0,81967,204573869567396,18,31.322019577026367,-59.88854657928184,1.313012658408712,20,-1815.8265232475608,3.4028234663852886E38,1.56109798E9,,,,0,,5,52.296875,1.56109798E9,1.0,NaN,NaN
Raw,1186218180492085,36554000000,,,-1265446151445559130,0.0,23.5668522589719,,,25,11,0.0,16384,204573912000734,1000000000,12.0,278.78638273193656,2.99792458E8,20,1952.3982630758824,3.4028234663852886E38,1.56109798E9,,,,1,,5,52.296875,1.56109798E9,1.0,NaN,NaN
Raw,1186218180492085,36554000000,,,-1265446151445559130,0.0,23.5668522589719,,,25,19,0.0,81967,204573916782784,6,43.51398468017578,563.4428210332533,0.2197394491626472,20,16992.521350124713,3.4028234663852886E38,1.56109798E9,,,,0,,5,52.296875,1.56109798E9,1.0,NaN,NaN
Raw,1186218180492085,36554000000,,,-1265446151445559130,0.0,23.5668522589719,,,25,21,0.0,16385,204573922999798,46,19.85402488708496,-422.9037433965316,1.2812218476832733,20,-12537.8807629753,3.4028234663852886E38,1.56109798E9,,,,1,,5,52.296875,1.56109798E9,1.0,NaN,NaN
Raw,1186218180492085,36554000000,,,-1265446151445559130,0.0,23.5668522589719,,,25,22,0.0,81967,204573926288909,7,43.2219123840332,149.6390388780892,0.0022504338994622226,25,4489.271787812926,0.0011252169497311115,1.56109798E9,,,,0,,5,52.296875,1.56109798E9,1.0,NaN,NaN
Raw,1186218180492085,36554000000,,,-1265446151445559130,0.0,23.5668522589719,,,25,36,0.0,81967,204573925133361,9,39.975826263427734,-97.38423757394679,0.37675093590263664,20,-2975.266098061809,3.4028234663852886E38,1.56109798E9,,,,0,,5,52.296875,1.56109798E9,1.0,NaN,NaN
Raw,1186218180492085,36554000000,,,-1265446151445559130,0.0,23.5668522589719,,,25,2,0.0,84002,204587908346533,1000000000,22.672786712646484,441.716679995362,2.99792458E8,28,3092.112499366028,3.4028234663852886E38,1.57542003E9,,,,1,,6,37.307655334472656,1.57542003E9,1.0,NaN,NaN
Raw,1186218180492085,36554000000,,,-1265446151445559130,0.0,23.5668522589719,,,25,7,0.0,21546,204587918004776,17,40.487091064453125,297.27383187097416,0.353197162618863,28,8203.882972357595,3.4028234663852886E38,1.57542003E9,,,,0,,6,37.307655334472656,1.57542003E9,1.0,NaN,NaN
Raw,1186218180492085,36554000000,,,-1265446151445559130,0.0,23.5668522589719,,,25,8,0.0,84002,204587910171158,1000000000,22.477331161499023,491.9363617027666,2.99792458E8,28,3444.9274096198696,3.4028234663852886E38,1.57542003E9,,,,1,,6,37.307655334472656,1.57542003E9,1.0,NaN,NaN
Raw,1186218180492085,36554000000,,,-1265446151445559130,0.0,23.5668522589719,,,25,12,0.0,84002,204587916474209,1000000000,20.82956886291504,47.20995795893768,2.99792458E8,28,329.76940363356425,3.4028234663852886E38,1.57542003E9,,,,1,,6,37.307655334472656,1.57542003E9,1.0,NaN,NaN
Raw,1186218180492085,36554000000,,,-1265446151445559130,0.0,23.5668522589719,,,25,19,0.0,84002,204587911371861,1000000000,24.748035430908203,-480.44989220544903,2.99792458E8,28,-3362.212434818626,3.4028234663852886E38,1.57542003E9,,,,0,,6,37.307655334472656,1.57542003E9,1.0,NaN,NaN
Raw,1186218180492085,36554000000,,,-1265446151445559130,0.0,23.5668522589719,,,25,27,0.0,21546,204587914975321,41,29.9518985748291,-527.684905030238,0.827127499999206,28,-13948.305711033358,3.4028234663852886E38,1.57542003E9,,,,0,,6,37.307655334472656,1.57542003E9,1.0,NaN,NaN
Raw,1186218180492085,36554000000,,,-1265446151445559130,0.0,23.5668522589719,,,25,30,0.0,85026,204587921373949,17,40.32013702392578,-26.29703080145427,0.3613110172757714,28,-746.4775374320668,3.4028234663852886E38,1.57542003E9,,,,0,,6,37.307655334472656,1.57542003E9,1.0,NaN,NaN
Raw,1186218180492085,36554000000,,,-1265446151445559130,0.0,23.5668522589719,,,25,33,0.0,84002,204587909305855,1000000000,22.5299072265625,468.8120625187137,2.99792458E8,28,3282.204169816838,3.4028234663852886E38,1.57542003E9,,,,1,,6,37.307655334472656,1.57542003E9,1.0,NaN,NaN
Fix,gps,51.524707,-0.134140,114.090637,0.000000,8.000000,1581410970999,1186219193941623
Raw,1186219214868507,37554000000,,,-1265446151445559179,0.0,23.262495890218677,,,25,2,0.0,16431,204588918905901,124,16.263526916503906,562.527911570355,1.4455436219436182,20,21040.16504473474,3.4028234663852886E38,1.57542003E9,,,,1,,1,33.5750732421875,1.57542003E9,1.0,NaN,NaN
Raw,1186219214868507,37554000000,,,-1265446151445559179,0.0,23.262495890218677,,,25,5,0.0,16431,204588931441792,51,27.2276668548584,-50.32709682944326,0.951156088843033,20,-2120.7870917512264,3.4028234663852886E38,1.57542003E9,,,,0,,1,33.5750732421875,1.57542003E9,1.0,NaN,NaN
Raw,1186219214868507,37554000000,,,-1265446151445559179,0.0,23.262495890218677,,,25,7,0.0,16431,204588927630956,12,44.460968017578125,302.38853467301305,0.0019335137913003564,25,12506.796996502071,9.667568956501782E-4,1.57542003E9,,,,0,,1,33.5750732421875,1.57542003E9,1.0,NaN,NaN
Raw,1186219214868507,37554000000,,,-1265446151445559179,0.0,23.262495890218677,,,25,9,0.0,16431,204588917983530,34,32.36404037475586,613.8393132289276,0.00733867147937417,25,25459.221290048125,0.003669335739687085,1.57542003E9,,,,0,,1,33.5750732421875,1.57542003E9,1.0,NaN,NaN
Raw,1186219214868507,37554000000,,,-1265446151445559179,0.0,23.262495890218677,,,25,13,0.0,16431,204588926554630,73,22.86129379272461,-507.92147688389946,1.1466278304519708,20,-17253.22074218244,3.4028234663852886E38,1.57542003E9,,,,0,,1,33.5750732421875,1.57542003E9,1.0,NaN,NaN
Raw,1186219214868507,37554000000,,,-1265446151445559179,0.0,23.262495890218677,,,25,15,0.0,16384,204588918011845,1000000000,18.997726440429688,-681.5402710900739,2.99792458E8,20,-8507.769332020911,3.4028234663852886E38,1.57542003E9,,,,1,,1,33.5750732421875,1.57542003E9,1.0,NaN,NaN
Raw,1186219214868507,37554000000,,,-1265446151445559179,0.0,23.262495890218677,,,25,21,0.0,16384,204588913983332,1000000000,16.624778747558594,-396.14547045064705,2.99792458E8,20,-3170.3595831419498,3.4028234663852886E38,1.57542003E9,,,,0,,1,33.5750732421875,1.57542003E9,1.0,NaN,NaN
Raw,1186219214868507,37554000000,,,-1265446151445559179,0.0,23.262495890218677,,,25,27,0.0,16384,204588914468752,1000000000,12.0,-293.70188818001407,2.99792458E8,20,-11145.546347158368,3.4028234663852886E38,1.57542003E9,,,,1,,1,33.5750732421875,1.57542003E9,1.0,NaN,NaN
Raw,1186219214868507,37554000000,,,-1265446151445559179,0.0,23.262495890218677,,,25,28,0.0,16431,204588919378870,69,23.58456802368164,-638.1527586172319,1.1164097387066256,20,-26331.47075382818,3.4028234663852886E38,1.57542003E9,,,,0,,1,33.5750732421875,1.57542003E9,1.0,NaN,NaN
Raw,1186219214868507,37554000000,,,-1265446151445559179,0.0,23.262495890218677,,,25,30,0.0,16431,204588931111116,15,42.27667999267578,-102.09027200375203,0.0023441503290086985,25,-4296.79020484753,0.0011720751645043492,1.57542003E9,,,,0,,1,33.5750732421875,1.57542003E9,1.0,NaN,NaN
Raw,1186219214868507,37554000000,,,-1265446151445559179,0.0,23.262495890218677,,,25,2,0.0,32867,935284629,134,23.950536727905273,-211.8008590118311,1.0992161379003362,28,-6655.703944334208,3.4028234663852886E38,1.59975002E9,,,,0,,3,46.58837890625,1.59975002E9,1.0,NaN,NaN
Raw,1186219214868507,37554000000,,,-1265446151445559179,0.0,23.262495890218677,,,25,18,0.0,32768,42570924121925,1000000000,23.05251693725586,374.24030073641507,2.99792458E8,28,2992.0832531038122,3.4028234663852886E38,1.60031245E9,,,,0,,3,46.58837890625,1.60031245E9,1.0,NaN,NaN
Raw,1186219214868507,37554000000,,,-1265446151445559179,0.0,23.262495890218677,,,25,13,0.0,32768,42570919034172,1000000000,17.501876831054688,-886.9375818405733,2.99792458E8,28,-7090.614653138477,3.4028234663852886E38,1.60087501E9,,,,1,,3,46.58837890625,1.60087501E9,1.0,NaN,NaN
Raw,1186219214868507,37554000000,,,-1265446151445559179,0.0,23.262495890218677,,,25,12,0.0,32867,932268732,85,29.57950210571289,-536.5274279627986,0.8455454065484007,28,-16644.445235221705,3.4028234663852886E38,1.60143744E9,,,,0,,3,46.58837890625,1.60143744E9,1.0,NaN,NaN
Raw,1186219214868507,37554000000,,,-1265446151445559179,0.0,23.262495890218677,,,25,11,0.0,32867,932693226,49,36.421783447265625,229.75427818293338,0.004523391369730234,25,6937.095370319292,0.002261695684865117,1.602E9,,,,0,,3,46.58837890625,1.602E9,1.0,NaN,NaN
Raw,1186219214868507,37554000000,,,-1265446151445559179,0.0,23.262495890218677,,,25,1,0.0,32867,928293769,35,40.32231521606445,561.9468577447333,0.0030609858222305775,25,17102.24328176608,0.0015304929111152887,1.60256256E9,,,,0,,3,46.58837890625,1.60256256E9,1.0,NaN,NaN
Raw,1186219214868507,37554000000,,,-1265446151445559179,0.0,23.262495890218677,,,25,19,0.0,32768,42570922861856,1000000000,15.750810623168945,-256.8154850003003,2.99792458E8,28,-2062.585963970471,3.4028234663852886E38,1.60368755E9,,,,1,,3,46.58837890625,1.60368755E9,1.0,NaN,NaN
Raw,1186219214868507,37554000000,,,-1265446151445559179,0.0,23.262495890218677,,,25,17,0.0,32768,42570919085261,1000000000,16.39223861694336,740.2046993799613,2.99792458E8,28,5923.531721855381,3.4028234663852886E38,1.60424998E9,,,,1,,3,46.58837890625,1.60424998E9,1.0,NaN,NaN
Raw,1186219214868507,37554000000,,,-1265446151445559179,0.0,23.262495890218677,,,25,3,0.0,32803,4444830,116,25.72890853881836,-693.027490401435,1.0172949596098877,28,-20965.247003548215,3.4028234663852886E38,1.60481254E9,,,,0,,3,46.58837890625,1.60481254E9,1.0,NaN,NaN
Raw,1186219214868507,37554000000,,,-1265446151445559179,0.0,23.262495890218677,,,25,5,0.0,17193,204574863514054,35,31.886749267578125,-13.418770109571227,0.7398565742460383,20,-407.21281893949197,3.4028234663852886E38,1.56109798E9,,,,0,,5,51.1672477722168,1.56109798E9,1.0,NaN,NaN
Raw,1186219214868507,37554000000,,,-1265446151445559179,0.0,23.262495890218677,,,25,7,0.0,16385,204574866494720,47,19.775089263916016,63.40934528392239,1.2854002769722124,20,505.1744571311992,3.4028234663852886E38,1.56109798E9,,,,0,,5,51.1672477722168,1.56109798E9,1.0,NaN,NaN
Raw,1186219214868507,37554000000,,,-1265446151445559179,0.0,23.262495890218677,,,25,10,0.0,81967,204574869567603,20,29.98301124572754,-60.44681721712547,0.8269141518094489,20,-1875.685609068985,3.4028234663852886E38,1.56109798E9,,,,0,,5,51.1672477722168,1.56109798E9,1.0,NaN,NaN
Raw,1186219214868507,37554000000,,,-1265446151445559179,0.0,23.262495890218677,,,25,11,0.0,16384,204574911999802,1000000000,12.0,279.1608807642092,2.99792458E8,20,2231.713459543122,3.4028234663852886E38,1.56109798E9,,,,1,,5,51.1672477722168,1.56109798E9,1.0,NaN,NaN
Raw,1186219214868507,37554000000,,,-1265446151445559179,0.0,23.262495890218677,,,25,19,0.0,81967,204574916780905,6,43.78416442871094,563.4920020180157,0.20758931968145689,20,17555.563802499208,3.4028234663852886E38,1.56109798E9,,,,0,,5,51.1672477722168,1.56109798E9,1.0,NaN,NaN
Raw,1186219214868507,37554000000,,,-1265446151445559179,0.0,23.262495890218677,,,25,21,0.0,16385,204574923001198,61,16.467256546020508,-422.49294754806215,1.4335213016743884,20,-12960.44986516757,3.4028234663852886E38,1.56109798E9,,,,1,,5,51.1672477722168,1.56109798E9,1.0,NaN,NaN
Raw,1186219214868507,37554000000,,,-1265446151445559179,0.0,23.262495890218677,,,25,22,0.0,81967,204574926288399,9,39.562889099121094,149.7999569114072,0.0032332642003893852,25,4639.071744724333,0.0016166321001946926,1.56109798E9,,,,0,,5,51.1672477722168,1.56109798E9,1.0,NaN,NaN
Raw,1186219214868507,37554000000,,,-1265446151445559179,0.0,23.262495890218677,,,25,36,0.0,81967,204574925133668,10,38.084651947021484,-96.94654238818202,0.004065643064677715,17,-3072.212640449991,0.0980525646874771,1.56109798E9,,,,0,,5,51.1672477722168,1.56109798E9,1.0,NaN,NaN
Raw,1186219214868507,37554000000,,,-1265446151445559179,0.0,23.262495890218677,,,25,2,0.0,84002,204588908345059,1000000000,22.18804931640625,441.89718068510683,2.99792458E8,28,3534.165071319021,3.4028234663852886E38,1.57542003E9,,,,1,,6,33.5750732421875,1.57542003E9,1.0,NaN,NaN
Raw,1186219214868507,37554000000,,,-1265446151445559179,0.0,23.262495890218677,,,25,7,0.0,21546,204588918003782,20,38.44327163696289,297.4914142734158,0.4451052661944208,28,8498.363686085479,3.4028234663852886E38,1.57542003E9,,,,0,,6,33.5750732421875,1.57542003E9,1.0,NaN,NaN
Raw,1186219214868507,37554000000,,,-1265446151445559179,0.0,23.262495890218677,,,25,8,0.0,84002,204588910169516,1000000000,21.617122650146484,492.20554494438375,2.99792458E8,28,3936.644618353978,3.4028234663852886E38,1.57542003E9,,,,0,,6,33.5750732421875,1.57542003E9,1.0,NaN,NaN
Raw,1186219214868507,37554000000,,,-1265446151445559179,0.0,23.262495890218677,,,25,12,0.0,84002,204588916474051,1000000000,20.491840362548828,46.972948556278055,2.99792458E8,28,377.00002320073907,3.4028234663852886E38,1.57542003E9,,,,1,,6,33.5750732421875,1.57542003E9,1.0,NaN,NaN
Raw,1186219214868507,37554000000,,,-1265446151445559179,0.0,23.262495890218677,,,25,19,0.0,84002,204588911373464,1000000000,23.912521362304688,-480.43660004740514,2.99792458E8,28,-3842.92707890235,3.4028234663852886E38,1.57542003E9,,,,1,,6,33.5750732421875,1.57542003E9,1.0,NaN,NaN
Raw,1186219214868507,37554000000,,,-1265446151445559179,0.0,23.262495890218677,,,25,27,0.0,21546,204588914977061,42,29.5876522064209,-527.4792063888071,0.010102685540914536,25,-14475.784917422165,0.005051342770457268,1.57542003E9,,,,1,,6,33.5750732421875,1.57542003E9,1.0,NaN,NaN
Raw,1186219214868507,37554000000,,,-1265446151445559179,0.0,23.262495890218677,,,25,30,0.0,85026,204588921374039,22,37.59710693359375,-25.729397140723222,0.004017575643956661,25,-772.20693457279,0.0020087878219783306,1.57542003E9,,,,0,,6,33.5750732421875,1.57542003E9,1.0,NaN,NaN
Raw,1186219214868507,37554000000,,,-1265446151445559179,0.0,23.262495890218677,,,25,33,0.0,84002,204588909304293,1000000000,21.677501678466797,468.81666365034425,2.99792458E8,28,3750.6422346102795,3.4028234663852886E38,1.57542003E9,,,,1,,6,33.5750732421875,1.57542003E9,1.0,NaN,NaN
Fix,gps,51.524707,-0.134140,114.063508,0.000000,8.000000,1581410971999,1186220164703391
Raw,1186220187986660,38554000000,,,-1265446151445559228,0.0,22.94470567237848,,,25,2,0.0,16430,204589918904101,1000000000,16.417160034179688,562.2137394861277,2.99792458E8,20,21605.026915644346,3.4028234663852886E38,1.57542003E9,,,,1,,1,35.23455810546875,1.57542003E9,1.0,NaN,NaN
Raw,1186220187986660,38554000000,,,-1265446151445559228,0.0,22.94470567237848,,,25,5,0.0,16431,204589931441958,54,26.484281539916992,-50.56758690297528,0.9845851873369931,20,-2172.1563461286996,3.4028234663852886E38,1.57542003E9,,,,0,,1,35.23455810546875,1.57542003E9,1.0,NaN,NaN
Raw,1186220187986660,38554000000,,,-1265446151445559228,0.0,22.94470567237848,,,25,7,0.0,16431,204589927629955,15,42.08622741699219,302.1759614026105,0.0025414663832634683,25,12808.972957904682,0.0012707331916317344,1.57542003E9,,,,0,,1,35.23455810546875,1.57542003E9,1.0,NaN,NaN
Raw,1186220187986660,38554000000,,,-1265446151445559228,0.0,22.94470567237848,,,25,9,0.0,16431,204589917981481,34,32.151309967041016,613.7144705404789,0.007520624902099371,25,26072.935760588603,0.0037603124510496855,1.57542003E9,,,,0,,1,35.23455810546875,1.57542003E9,1.0,NaN,NaN
Raw,1186220187986660,38554000000,,,-1265446151445559228,0.0,22.94470567237848,,,25,13,0.0,16431,204589926556323,74,22.72301483154297,-507.60706622247653,1.1528462811522342,20,-17761.15812533092,3.4028234663852886E38,1.57542003E9,,,,0,,1,35.23455810546875,1.57542003E9,1.0,NaN,NaN
Raw,1186220187986660,38554000000,,,-1265446151445559228,0.0,22.94470567237848,,,25,15,0.0,16384,204589918014188,1000000000,18.137516021728516,-681.4389098643751,2.99792458E8,20,-9189.748175986788,3.4028234663852886E38,1.57542003E9,,,,0,,1,35.23455810546875,1.57542003E9,1.0,NaN,NaN
Raw,1186220187986660,38554000000,,,-1265446151445559228,0.0,22.94470567237848,,,25,21,0.0,16384,204589913984649,1000000000,15.76457405090332,-395.9599596397934,2.99792458E8,20,-3566.3200815668697,3.4028234663852886E38,1.57542003E9,,,,1,,1,35.23455810546875,1.57542003E9,1.0,NaN,NaN
Raw,1186220187986660,38554000000,,,-1265446151445559228,0.0,22.94470567237848,,,25,27,0.0,16384,204589914469883,1000000000,12.0,-293.70188818001407,2.99792458E8,20,-11439.06492796848,3.4028234663852886E38,1.57542003E9,,,,1,,1,35.23455810546875,1.57542003E9,1.0,NaN,NaN
Raw,1186220187986660,38554000000,,,-1265446151445559228,0.0,22.94470567237848,,,25,28,0.0,16430,204589919381000,1000000000,18.754627227783203,-638.2254905794516,2.99792458E8,20,-26968.449816838536,3.4028234663852886E38,1.57542003E9,,,,0,,1,35.23455810546875,1.57542003E9,1.0,NaN,NaN
Raw,1186220187986660,38554000000,,,-1265446151445559228,0.0,22.94470567237848,,,25,30,0.0,16431,204589931111447,17,40.640037536621094,-102.18065238606687,0.003001883625984192,25,-4398.970857233597,0.001500941812992096,1.57542003E9,,,,0,,1,35.23455810546875,1.57542003E9,1.0,NaN,NaN
Raw,1186220187986660,38554000000,,,-1265446151445559228,0.0,22.94470567237848,,,25,2,0.0,32867,1935285313,165,21.391746520996094,-211.7361705093508,1.2142821723227284,28,-6867.415666091462,3.4028234663852886E38,1.59975002E9,,,,0,,3,49.77452850341797,1.59975002E9,1.0,NaN,NaN
Raw,1186220187986660,38554000000,,,-1265446151445559228,0.0,22.94470567237848,,,25,18,0.0,32768,42571924120037,1000000000,22.245315551757812,374.3800728906151,2.99792458E8,28,3366.3635596143577,3.4028234663852886E38,1.60031245E9,,,,1,,3,49.77452850341797,1.60031245E9,1.0,NaN,NaN
Raw,1186220187986660,38554000000,,,-1265446151445559228,0.0,22.94470567237848,,,25,13,0.0,32768,42571919037131,1000000000,16.939441680908203,-887.8009586292092,2.99792458E8,28,-7976.874160274572,3.4028234663852886E38,1.60087501E9,,,,1,,3,49.77452850341797,1.60087501E9,1.0,NaN,NaN
Raw,1186220187986660,38554000000,,,-1265446151445559228,0.0,22.94470567237848,,,25,12,0.0,32867,1932270500,114,25.9632568359375,-536.7461350863055,1.0081641896266693,28,-17180.430281477755,3.4028234663852886E38,1.60143744E9,,,,0,,3,49.77452850341797,1.60143744E9,1.0,NaN,NaN
Raw,1186220187986660,38554000000,,,-1265446151445559228,0.0,22.94470567237848,,,25,11,0.0,32995,42571932692439,52,35.67800521850586,229.71390948949738,0.005226721055805682,25,7166.809279808789,0.0026133605279028416,1.602E9,,,,0,,3,49.77452850341797,1.602E9,1.0,NaN,NaN
Raw,1186220187986660,38554000000,,,-1265446151445559228,0.0,22.94470567237848,,,25,1,0.0,32995,42571928291837,44,37.699005126953125,561.544053297911,0.4797051503237777,28,17664.054475082008,3.4028234663852886E38,1.60256256E9,,,,0,,3,49.77452850341797,1.60256256E9,1.0,NaN,NaN
Raw,1186220187986660,38554000000,,,-1265446151445559228,0.0,22.94470567237848,,,25,19,0.0,32768,42571922862712,1000000000,15.529502868652344,-257.58239139574835,2.99792458E8,28,-2318.985441683963,3.4028234663852886E38,1.60368755E9,,,,1,,3,49.77452850341797,1.60368755E9,1.0,NaN,NaN
Raw,1186220187986660,38554000000,,,-1265446151445559228,0.0,22.94470567237848,,,25,17,0.0,32768,42571919082792,1000000000,15.573360443115234,740.4048315646633,2.99792458E8,28,6663.140901527684,3.4028234663852886E38,1.60424998E9,,,,1,,3,49.77452850341797,1.60424998E9,1.0,NaN,NaN
Raw,1186220187986660,38554000000,,,-1265446151445559228,0.0,22.94470567237848,,,25,3,0.0,32803,4446992,131,24.260984420776367,-692.7548307492525,1.0833062208666755,28,-21658.727146766167,3.4028234663852886E38,1.60481254E9,,,,0,,3,49.77452850341797,1.60481254E9,1.0,NaN,NaN
Raw,1186220187986660,38554000000,,,-1265446151445559228,0.0,22.94470567237848,,,25,5,0.0,17193,204575863514096,36,31.37737464904785,-13.004213475039855,0.7627625811539849,20,-420.5732376459423,3.4028234663852886E38,1.56109798E9,,,,0,,5,50.23420715332031,1.56109798E9,1.0,NaN,NaN
Raw,1186220187986660,38554000000,,,-1265446151445559228,0.0,22.94470567237848,,,25,7,0.0,16385,204575866494526,47,19.775224685668945,63.41725667414275,1.2853938865116143,20,568.2271980490012,3.4028234663852886E38,1.56109798E9,,,,0,,5,50.23420715332031,1.56109798E9,1.0,NaN,NaN
Raw,1186220187986660,38554000000,,,-1265446151445559228,0.0,22.94470567237848,,,25,10,0.0,81967,204575869567803,18,31.622777938842773,-59.85896300702004,0.7531756920455823,20,-1935.9757850012525,3.4028234663852886E38,1.56109798E9,,,,0,,5,50.23420715332031,1.56109798E9,1.0,NaN,NaN
Raw,1186220187986660,38554000000,,,-1265446151445559228,0.0,22.94470567237848,,,25,11,0.0,16384,204575911998868,1000000000,12.0,279.1608807642092,2.99792458E8,20,2510.874341396795,3.4028234663852886E38,1.56109798E9,,,,1,,5,50.23420715332031,1.56109798E9,1.0,NaN,NaN
Raw,1186220187986660,38554000000,,,-1265446151445559228,0.0,22.94470567237848,,,25,19,0.0,81967,204575916779030,8,40.769447326660156,563.5685512153659,0.3431574827501711,20,18119.03512343459,3.4028234663852886E38,1.56109798E9,,,,0,,5,50.23420715332031,1.56109798E9,1.0,NaN,NaN
Raw,1186220187986660,38554000000,,,-1265446151445559228,0.0,22.94470567237848,,,25,21,0.0,16384,204575923002566,1000000000,12.0,-422.63326502156656,2.99792458E8,20,-13383.386562985044,3.4028234663852886E38,1.56109798E9,,,,1,,5,50.23420715332031,1.56109798E9,1.0,NaN,NaN
Raw,1186220187986660,38554000000,,,-1265446151445559228,0.0,22.94470567237848,,,25,22,0.0,81967,204575926287902,11,37.397857666015625,149.90681122429874,0.492886939787762,20,4788.858349445065,3.4028234663852886E38,1.56109798E9,,,,0,,5,50.23420715332031,1.56109798E9,1.0,NaN,NaN
Raw,1186220187986660,38554000000,,,-1265446151445559228,0.0,22.94470567237848,,,25,36,0.0,81967,204575925134006,12,36.43461608886719,-97.06028767111412,0.004635054152458906,17,-3169.272928121105,0.0983372702313677,1.56109798E9,,,,0,,5,50.23420715332031,1.56109798E9,1.0,NaN,NaN
Raw,1186220187986660,38554000000,,,-1265446151445559228,0.0,22.94470567237848,,,25,2,0.0,85026,204589908343634,81,21.53855323791504,441.8969421079112,1.2057122983915827,28,3975.906542144483,3.4028234663852886E38,1.57542003E9,,,,1,,6,35.23455810546875,1.57542003E9,1.0,NaN,NaN
Raw,1186220187986660,38554000000,,,-1265446151445559228,0.0,22.94470567237848,,,25,7,0.0,21546,204589918002800,24,36.450172424316406,296.2417443587965,0.004584699869155883,25,8794.605430444275,0.002292349934577942,1.57542003E9,,,,0,,6,35.23455810546875,1.57542003E9,1.0,NaN,NaN
Raw,1186220187986660,38554000000,,,-1265446151445559228,0.0,22.94470567237848,,,25,8,0.0,84002,204589910167874,1000000000,20.756916046142578,491.7483969550433,2.99792458E8,28,4430.272188946823,3.4028234663852886E38,1.57542003E9,,,,0,,6,35.23455810546875,1.57542003E9,1.0,NaN,NaN
Raw,1186220187986660,38554000000,,,-1265446151445559228,0.0,22.94470567237848,,,25,12,0.0,85026,204589916473865,93,19.86223793029785,47.45395426518448,1.2811177364293638,28,426.352905405366,3.4028234663852886E38,1.57542003E9,,,,1,,6,35.23455810546875,1.57542003E9,1.0,NaN,NaN
Raw,1186220187986660,38554000000,,,-1265446151445559228,0.0,22.94470567237848,,,25,19,0.0,84002,204589911375064,1000000000,23.05231475830078,-480.2741289771609,2.99792458E8,28,-4322.880190960745,3.4028234663852886E38,1.57542003E9,,,,0,,6,35.23455810546875,1.57542003E9,1.0,NaN,NaN
Raw,1186220187986660,38554000000,,,-1265446151445559228,0.0,22.94470567237848,,,25,27,0.0,21546,204589914978844,48,27.931123733520508,-526.8829789107128,0.9180000494050429,28,-15003.382218405251,3.4028234663852886E38,1.57542003E9,,,,1,,6,35.23455810546875,1.57542003E9,1.0,NaN,NaN
Raw,1186220187986660,38554000000,,,-1265446151445559228,0.0,22.94470567237848,,,25,30,0.0,85026,204589921374128,23,36.78923797607422,-26.03827456288036,0.004409175831824542,25,-798.2452091356704,0.0022045879159122705,1.57542003E9,,,,0,,6,35.23455810546875,1.57542003E9,1.0,NaN,NaN
Raw,1186220187986660,38554000000,,,-1265446151445559228,0.0,22.94470567237848,,,25,33,0.0,84002,204589909302727,1000000000,21.106210708618164,469.0133535069374,2.99792458E8,28,4219.365581562193,3.4028234663852886E38,1.57542003E9,,,,1,,6,35.23455810546875,1.57542003E9,1.0,NaN,NaN
Fix,gps,51.524713,-0.134168,114.133968,0.000000,8.000000,1581410972999,1186221180259044
Raw,1186221199994237,39554000000,,,-1265446151445559277,0.0,22.74329655064218,,,25,2,0.0,16430,204590918902222,1000000000,17.035320281982422,562.4305039096128,2.99792458E8,20,22167.646510014136,3.4028234663852886E38,1.57542003E9,,,,1,,1,33.5750732421875,1.57542003E9,1.0,NaN,NaN
Raw,1186221199994237,39554000000,,,-1265446151445559277,0.0,22.74329655064218,,,25,5,0.0,16431,204590931442095,58,25.565391540527344,-50.26181188397382,1.02590670437141,20,-2222.725083212719,3.4028234663852886E38,1.57542003E9,,,,1,,1,33.5750732421875,1.57542003E9,1.0,NaN,NaN
Raw,1186221199994237,39554000000,,,-1265446151445559277,0.0,22.74329655064218,,,25,7,0.0,16431,204590927628954,12,45.148399353027344,302.48574639284556,0.0017863874090835452,25,13111.458704297527,8.931937045417726E-4,1.57542003E9,,,,0,,1,33.5750732421875,1.57542003E9,1.0,NaN,NaN
Raw,1186221199994237,39554000000,,,-1265446151445559277,0.0,22.74329655064218,,,25,9,0.0,16431,204590917979444,23,36.994136810302734,613.8549337016884,0.0045676082372665405,25,26686.790694290292,0.0022838041186332703,1.57542003E9,,,,0,,1,33.5750732421875,1.57542003E9,1.0,NaN,NaN
Raw,1186221199994237,39554000000,,,-1265446151445559277,0.0,22.74329655064218,,,25,13,0.0,16431,204590926558025,67,23.923032760620117,-507.7135738991103,1.2467783301366744,20,-18269.872214830004,3.4028234663852886E38,1.57542003E9,,,,0,,1,33.5750732421875,1.57542003E9,1.0,NaN,NaN
Raw,1186221199994237,39554000000,,,-1265446151445559277,0.0,22.74329655064218,,,25,15,0.0,16384,204590918016463,1000000000,18.177215576171875,-681.9861377863053,2.99792458E8,20,-9870.255029011661,3.4028234663852886E38,1.57542003E9,,,,0,,1,33.5750732421875,1.57542003E9,1.0,NaN,NaN
Raw,1186221199994237,39554000000,,,-1265446151445559277,0.0,22.74329655064218,,,25,21,0.0,16384,204590913985970,1000000000,14.90435791015625,-395.9598233099673,2.99792458E8,20,-3962.1851754485324,3.4028234663852886E38,1.57542003E9,,,,1,,1,33.5750732421875,1.57542003E9,1.0,NaN,NaN
Raw,1186221199994237,39554000000,,,-1265446151445559277,0.0,22.74329655064218,,,25,27,0.0,16384,204590914470710,1000000000,12.0,-293.5162410393343,2.99792458E8,20,-11732.621899074853,3.4028234663852886E38,1.57542003E9,,,,1,,1,33.5750732421875,1.57542003E9,1.0,NaN,NaN
Raw,1186221199994237,39554000000,,,-1265446151445559277,0.0,22.74329655064218,,,25,28,0.0,16431,204590919383124,70,23.276927947998047,-638.2841124046709,1.1302446864975666,20,-27606.098738670735,3.4028234663852886E38,1.57542003E9,,,,1,,1,33.5750732421875,1.57542003E9,1.0,NaN,NaN
Raw,1186221199994237,39554000000,,,-1265446151445559277,0.0,22.74329655064218,,,25,30,0.0,16431,204590931111792,11,48.27824783325195,-101.83183963882675,0.0013132946332916617,25,-4500.802696872423,6.566473166458309E-4,1.57542003E9,,,,0,,1,33.5750732421875,1.57542003E9,1.0,NaN,NaN
Raw,1186221199994237,39554000000,,,-1265446151445559277,0.0,22.74329655064218,,,25,2,0.0,32867,935286038,109,26.54576873779297,-211.6809398885556,0.982511682574827,28,-7079.188406630718,3.4028234663852886E38,1.59975002E9,,,,0,,3,49.67959976196289,1.59975002E9,1.0,NaN,NaN
Raw,1186221199994237,39554000000,,,-1265446151445559277,0.0,22.74329655064218,,,25,18,0.0,32768,42572924118806,1000000000,21.82564926147461,374.427004433247,2.99792458E8,28,3741.1816691582144,3.4028234663852886E38,1.60031245E9,,,,1,,3,49.67959976196289,1.60031245E9,1.0,NaN,NaN
Raw,1186221199994237,39554000000,,,-1265446151445559277,0.0,22.74329655064218,,,25,13,0.0,32768,42572919040089,1000000000,16.079252243041992,-886.2481619100299,2.99792458E8,28,-8863.770945999155,3.4028234663852886E38,1.60087501E9,,,,0,,3,49.67959976196289,1.60087501E9,1.0,NaN,NaN
Raw,1186221199994237,39554000000,,,-1265446151445559277,0.0,22.74329655064218,,,25,12,0.0,32867,932272462,80,30.340045928955078,-536.3129811463571,0.81134525904291,28,-17715.692640561974,3.4028234663852886E38,1.60143744E9,,,,1,,3,49.67959976196289,1.60143744E9,1.0,NaN,NaN
Raw,1186221199994237,39554000000,,,-1265446151445559277,0.0,22.74329655064218,,,25,11,0.0,32995,42572932691658,33,43.25307846069336,230.0966880498063,0.002185121877118945,25,7396.905967858595,0.0010925609385594726,1.602E9,,,,0,,3,49.67959976196289,1.602E9,1.0,NaN,NaN
Raw,1186221199994237,39554000000,,,-1265446151445559277,0.0,22.74329655064218,,,25,1,0.0,32995,42572928290013,37,39.84224319458008,562.318849782044,0.3833258211994848,28,18226.078556056036,3.4028234663852886E38,1.60256256E9,,,,0,,3,49.67959976196289,1.60256256E9,1.0,NaN,NaN
Raw,1186221199994237,39554000000,,,-1265446151445559277,0.0,22.74329655064218,,,25,19,0.0,32768,42572922863567,1000000000,14.778297424316406,-257.60728863023826,2.99792458E8,28,-2576.041266535992,3.4028234663852886E38,1.60368755E9,,,,1,,3,49.67959976196289,1.60368755E9,1.0,NaN,NaN
Raw,1186221199994237,39554000000,,,-1265446151445559277,0.0,22.74329655064218,,,25,17,0.0,32768,42572919080323,1000000000,15.453226089477539,740.0493515431303,2.99792458E8,28,7403.119726286965,3.4028234663852886E38,1.60424998E9,,,,1,,3,49.67959976196289,1.60424998E9,1.0,NaN,NaN
Raw,1186221199994237,39554000000,,,-1265446151445559277,0.0,22.74329655064218,,,25,3,0.0,32803,4449318,138,23.55316734313965,-692.7953207076016,1.1151364394324688,28,-22351.638250915017,3.4028234663852886E38,1.60481254E9,,,,0,,3,49.67959976196289,1.60481254E9,1.0,NaN,NaN
Raw,1186221199994237,39554000000,,,-1265446151445559277,0.0,22.74329655064218,,,25,5,0.0,17193,204576863514138,40,30.335369110107422,-12.842873516321468,0.8096204337871238,20,-433.84342180425915,3.4028234663852886E38,1.56109798E9,,,,0,,5,50.411476135253906,1.56109798E9,1.0,NaN,NaN
Raw,1186221199994237,39554000000,,,-1265446151445559277,0.0,22.74329655064218,,,25,7,0.0,16385,204576866494268,55,17.78960609436035,63.19645773986679,1.3746849966213333,20,630.4429755881667,3.4028234663852886E38,1.56109798E9,,,,1,,5,50.411476135253906,1.56109798E9,1.0,NaN,NaN
Raw,1186221199994237,39554000000,,,-1265446151445559277,0.0,22.74329655064218,,,25,10,0.0,81967,204576869567995,14,34.277183532714844,-59.78850604877326,0.6338102755539738,20,-1995.6409142331436,3.4028234663852886E38,1.56109798E9,,,,0,,5,50.411476135253906,1.56109798E9,1.0,NaN,NaN
Raw,1186221199994237,39554000000,,,-1265446151445559277,0.0,22.74329655064218,,,25,11,0.0,16384,204576911997934,1000000000,13.647985458374023,279.16111934140486,2.99792458E8,20,2790.3305377842444,3.4028234663852886E38,1.56109798E9,,,,1,,5,50.411476135253906,1.56109798E9,1.0,NaN,NaN
Raw,1186221199994237,39554000000,,,-1265446151445559277,0.0,22.74329655064218,,,25,19,0.0,81967,204576916777151,7,42.432857513427734,563.6805120850433,0.2683554772678183,20,18682.46433283387,3.4028234663852886E38,1.56109798E9,,,,0,,5,50.411476135253906,1.56109798E9,1.0,NaN,NaN
Raw,1186221199994237,39554000000,,,-1265446151445559277,0.0,22.74329655064218,,,25,21,0.0,16385,204576923003986,43,20.769704818725586,-422.5553525259554,1.2400454473582698,20,-13805.83178706168,3.4028234663852886E38,1.56109798E9,,,,1,,5,50.411476135253906,1.56109798E9,1.0,NaN,NaN
Raw,1186221199994237,39554000000,,,-1265446151445559277,0.0,22.74329655064218,,,25,22,0.0,81967,204576926287395,7,42.79594039916992,149.9026211257551,0.0023635507095605135,25,4938.76097057082,0.0011817753547802567,1.56109798E9,,,,0,,5,50.411476135253906,1.56109798E9,1.0,NaN,NaN
Raw,1186221199994237,39554000000,,,-1265446151445559277,0.0,22.74329655064218,,,25,36,0.0,81967,204576925134335,7,42.2364501953125,-96.31332418692944,0.2750933692353895,28,-3266.0064166785937,3.4028234663852886E38,1.56109798E9,,,,0,,5,50.411476135253906,1.56109798E9,1.0,NaN,NaN
Raw,1186221199994237,39554000000,,,-1265446151445559277,0.0,22.74329655064218,,,25,2,0.0,85026,204590908342148,83,21.288227081298828,441.8803780340411,1.2169689616004113,28,4417.568698565714,3.4028234663852886E38,1.57542003E9,,,,1,,6,33.5750732421875,1.57542003E9,1.0,NaN,NaN
Raw,1186221199994237,39554000000,,,-1265446151445559277,0.0,22.74329655064218,,,25,7,0.0,21546,204590918001794,14,42.84041976928711,297.52867353513466,0.0023301010951399803,25,9092.13410397941,0.0011650505475699902,1.57542003E9,,,,0,,6,33.5750732421875,1.57542003E9,1.0,NaN,NaN
Raw,1186221199994237,39554000000,,,-1265446151445559277,0.0,22.74329655064218,,,25,8,0.0,84002,204590910166232,1000000000,19.896709442138672,491.97811271200703,2.99792458E8,28,4920.6278158456635,3.4028234663852886E38,1.57542003E9,,,,0,,6,33.5750732421875,1.57542003E9,1.0,NaN,NaN
Raw,1186221199994237,39554000000,,,-1265446151445559277,0.0,22.74329655064218,,,25,12,0.0,84002,204590916473734,1000000000,19.169185638427734,47.34388923215113,2.99792458E8,28,472.57184808447295,3.4028234663852886E38,1.57542003E9,,,,1,,6,33.5750732421875,1.57542003E9,1.0,NaN,NaN
Raw,1186221199994237,39554000000,,,-1265446151445559277,0.0,22.74329655064218,,,25,19,0.0,84002,204590911376668,1000000000,22.263530731201172,-480.2838765597264,2.99792458E8,28,-4803.130978683266,3.4028234663852886E38,1.57542003E9,,,,0,,6,33.5750732421875,1.57542003E9,1.0,NaN,NaN
Raw,1186221199994237,39554000000,,,-1265446151445559277,0.0,22.74329655064218,,,25,27,0.0,21546,204590914980629,30,33.73827362060547,-527.4762128767361,0.006264778785407543,25,-15530.858431281988,0.0031323893927037716,1.57542003E9,,,,0,,6,33.5750732421875,1.57542003E9,1.0,NaN,NaN
Raw,1186221199994237,39554000000,,,-1265446151445559277,0.0,22.74329655064218,,,25,30,0.0,85026,204590921374202,16,41.14923095703125,-24.82140315430327,0.3240276056663285,28,-823.5601487488755,3.4028234663852886E38,1.57542003E9,,,,0,,6,33.5750732421875,1.57542003E9,1.0,NaN,NaN
Raw,1186221199994237,39554000000,,,-1265446151445559277,0.0,22.74329655064218,,,25,33,0.0,84002,204590909301157,1000000000,20.600948333740234,468.9819635644799,2.99792458E8,28,4689.031525377999,3.4028234663852886E38,1.57542003E9,,,,1,,6,33.5750732421875,1.57542003E9,1.0,NaN,NaN
Fix,gps,51.524710,-0.134168,114.322531,0.000000,8.000000,1581410973999,1186222145352390
